{
  "listings": [
    {
      "name": "Luxurious Nail Boutique & Spa",
      "address": "4138 Third Street. San Francisco, CA 94124",
      "phone": "415-285-2842 ",
      "url": "http://http://www.luxuriousnailssf.com/",
      "social": {
        "facebook": "LuxuriousNailBoutiqueSF",
        "instagram" : "luxurious_nail_boutique"
      },
      "categories": [
        "Personal Services"
      ]
    },
  ]
}


    Gussie’s Chicken and Waffles, 1521 Eddy St.
    Fillmore Street Cafe, 1301 Fillmore St.
    1300 on Fillmore, 1300 Fillmore St.
    Miyako Ice Cream, 1470 Fillmore St.
    Cafe Golo, 1602 Lombard St.
    Auntie Aprils, 4618 Third St.
    Bissap Baobab, 3372 19th St.
    Bumzy’s Chocolate Chip Cookies, 1460 Fillmore St
    Sheba Piano Lounge, 1419 Fillmore St.
    Farmer Brown, 25 Mason St.
    Little Skillet Cafe, 330 Ritch Street
    Queens Louisiana Po’ Boy, 3030 San Bruno St.
    Radio Africa, 4800 Third St.
    Sam Jordan’s Bar, 4004 Third St.
    Savanna Jazz Club, 2937 Mission St.
    Let’s Eat BBQ, 5130 Third St.
    Yvonne’s Southern Sweets, 4705 Third St.
    Frisco Fried, 5176 Third St.
    Sweet Inspiration 2239 Market St.
    Pepples Donuts, Ferry Building
    Amawale’s South African Kitchen, 101 Spear St,
    Crown Burgers, 4000 Third St. San Francisco 94124
    Two Jacks Niks Place 401 Haight St.
    Two Jacks, 984 Gilman St.
    Cafe Waziema, 543 Divisadero St.



    Souls Restaurant, 6403 Foothill Blvd.
    Lenas Soul Food, 1462 High St.
    Nellie’s Soul Food, 1155 Third St.
    Southern Cafe, 2000 Macarthur Blvd.
    Lois the Pie Queen, 851 60th St.
    Home of Chicken and Waffles, 444 Embarcadero W
    Pican, 2295 Broadway
    Souley Vegan, 301 Broadway
    Gennys Barbq, 6637 Bancroft Ave.
    Elve’s Barbq and Soul Food, 3214 Martin Luther King Jr Way
    Miss Ollie’s, 901 Washington St.
    Everett & Jones, 126 Broadway
    Cajun Hot Soul Food, 3112 Market St.
    Aqua Fresh Seafoods, 10823 Macarthur Blvd.
    Sizzling Friday, 6018 MacArthur Blvd.
    New Karibbean City, 1408 Webster St.
    Get the Fork Outta Here, 7641 MacArthur Blvd.
    Dorseys Locker, 5817 Shattuck Ave.
    Pietisserie, 444 Oak St.
    Uncle Willies Original Barbq and Fish, 614 14th St.
    BSideBarBQ, 3303 San Pablo Ave.
    Brown Sugar Kitchen, 2534 Mandela Pkwy.
    Shasheme Bar and Grill, 2507 Broadway
    Addis, 6100 Telegraph Ave.
    Ensarro Ethiopian, 336 Grand Ave.
    Miliki Nigerian Restaurant, 2534 Mandela Pkwy.
    Suya African Caribbean, 408 22nd St.
    Geoffreys Inner Circle, 410 14th St.
    ENAT Winery, 910 81st Ave.
    Red Sea Restaurant, 5200 Claremont Ave.
    Blend Wings, 420 14th St.


Marcus Bookstore
1712 Fillmore Street
San Francisco, CA 94115
(415) 346-4222

San Francisco Bay View
4917 Third St
San Francisco CA 94124
(415) 671-0789

Farmer Brown
25 Mason Street
San Francisco, CA 94102
(415) 409-3276

Hair Play
15 Page Street
San Francisco, CA 94102
Phone: 415-863-0703

Winfred's Salon
1967 Sutter Street
San Francisco, CA 94115
(415) 921-4888 

1300 On Fillmore
1300 Fillmore Street
San Francisco, CA 94115
(415) 771-7100

The Sun Reporter
1791 Bancroft Avenue,
San Francisco, CA 94124
(415) 671-1000

Gussie's Chicken and Waffles
1521 Eddy Street
San Francisco, CA 94115
(415) 409-2529

{"payload":[{"id":11429,"title":"Unsworth Personnel","lat":37.7850854,"lng":-122.407624,"url":"bay-professional\/unsworth-personnel","imageUrl":"","fields":[],"icon":"default","favorite":"no_access","inquiry":1,"ratings":{"user":{"rating":0,"count":0}}},{"id":11428,"title":"Sheppard Mullen","lat":37.7952508,"lng":-122.3961077,"url":"bay-professional\/sheppard-mullen","imageUrl":"","fields":[],"icon":"default","favorite":"no_access","inquiry":1,"ratings":{"user":{"rating":0,"count":0}}},{"id":10376,"title":"CAS Financial & Construction Services","lat":37.7803755,"lng":-122.3906375,"url":"bay-real-estate\/cas-financial-a-construction-services","imageUrl":"","fields":[],"icon":"default","favorite":"no_access","inquiry":1,"ratings":{"user":{"rating":0,"count":0}}},{"id":7083,"title":"Yolanda'S Construction Management And Traffic Control","lat":37.7419865,"lng":-122.386556,"url":"bay-financial\/yolandas-construction-management-and-traffic-control","imageUrl":"","fields":[],"icon":"default","favorite":"no_access","inquiry":1,"ratings":{"user":{"rating":0,"count":0}}},{"id":7082,"title":"Stanton W. Jones & Associates","lat":37.788747,"lng":-122.403034,"url":"bay-financial\/stanton-w-jones-a-associates","imageUrl":"","fields":[],"icon":"default","favorite":"no_access","inquiry":1,"ratings":{"user":{"rating":0,"count":0}}},{"id":7081,"title":"Sbe Bookkeeping Center","lat":37.7793075,"lng":-122.4234957,"url":"bay-financial\/sbe-bookkeeping-center","imageUrl":"","fields":[],"icon":"default","favorite":"no_access","inquiry":1,"ratings":{"user":{"rating":0,"count":0}}},{"id":7048,"title":"Dr. Lester E. Love, M.D.","lat":37.7642093,"lng":-122.4571623,"url":"bay-health\/dr-lester-e-love-md","imageUrl":"","fields":[],"icon":"default","favorite":"no_access","inquiry":1,"ratings":{"user":{"rating":0,"count":0}}},{"id":7046,"title":"William Thomas Ph.D.","lat":37.730296,"lng":-122.4762827,"url":"bay-health\/william-thomas-phd","imageUrl":"","fields":[],"icon":"default","favorite":"no_access","inquiry":1,"ratings":{"user":{"rating":0,"count":0}}},{"id":7043,"title":"Vital Course Chiropractic","lat":37.7839527,"lng":-122.4319675,"url":"bay-health\/vital-course-chiropractic","imageUrl":"","fields":[],"icon":"default","favorite":"no_access","inquiry":1,"ratings":{"user":{"rating":0,"count":0}}},{"id":7041,"title":"Harvey S Merriouns PHD","lat":37.7852462,"lng":-122.4221621,"url":"bay-health\/harvey-s-merriouns-phd","imageUrl":"","fields":[],"icon":"default","favorite":"no_access","inquiry":1,"ratings":{"user":{"rating":0,"count":0}}}]}
{"payload":[{"id":7037,"title":"Goosby DDS","lat":37.7897165,"lng":-122.4328515,"url":"bay-health\/goosby-dds","imageUrl":"","fields":[],"icon":"default","favorite":"no_access","inquiry":1,"ratings":{"user":{"rating":0,"count":0}}},{"id":7036,"title":"Ceasar A Churchwell DDS In","lat":37.7162094,"lng":-122.4404967,"url":"bay-health\/ceasar-a-churchwell-dds-in","imageUrl":"","fields":[],"icon":"default","favorite":"no_access","inquiry":1,"ratings":{"user":{"rating":0,"count":0}}},{"id":7032,"title":"Small Business Exchange","lat":37.7872289,"lng":-122.4034799,"url":"bal-professional\/small-business-exchange","imageUrl":"","fields":[],"icon":"default","favorite":"no_access","inquiry":1,"ratings":{"user":{"rating":0,"count":0}}},{"id":7020,"title":"Sims & Cohen","lat":37.7872289,"lng":-122.4034799,"url":"bay-professional\/sims-a-cohen","imageUrl":"","fields":[],"icon":"default","favorite":"no_access","inquiry":1,"ratings":{"user":{"rating":0,"count":0}}},{"id":7019,"title":"Norman Samuel Attorney At Law","lat":37.7519224,"lng":-122.4424608,"url":"bay-professional\/norman-samuel-attorney-at-law","imageUrl":"","fields":[],"icon":"default","favorite":"no_access","inquiry":1,"ratings":{"user":{"rating":0,"count":0}}},{"id":7018,"title":"Michael W Foster","lat":37.9255164,"lng":-122.3569136,"url":"bay-professional\/michael-w-foster","imageUrl":"","fields":[],"icon":"default","favorite":"no_access","inquiry":1,"ratings":{"user":{"rating":0,"count":0}}},{"id":7016,"title":"Lewis N Nelson","lat":37.8085316,"lng":-122.2631094,"url":"bay-professional\/lewis-n-nelson","imageUrl":"","fields":[],"icon":"default","favorite":"no_access","inquiry":1,"ratings":{"user":{"rating":0,"count":0}}},{"id":7015,"title":"Green William E & Assoc","lat":37.7242683,"lng":-122.4087956,"url":"bay-professional\/green-william-e-a-assoc","imageUrl":"","fields":[],"icon":"default","favorite":"no_access","inquiry":1,"ratings":{"user":{"rating":0,"count":0}}},{"id":7014,"title":"De Novo Ltigation Support Svcs","lat":37.6239079,"lng":-122.3815924,"url":"bay-professional\/de-novo-ltigation-support-svcs","imageUrl":"","fields":[],"icon":"default","favorite":"no_access","inquiry":1,"ratings":{"user":{"rating":0,"count":0}}},{"id":7013,"title":"Cole Rufus L Law Office","lat":37.7786871,"lng":-122.4212424,"url":"bay-professional\/cole-rufus-l-law-office","imageUrl":"","fields":[],"icon":"default","favorite":"no_access","inquiry":1,"ratings":{"user":{"rating":0,"count":0}}}]}
{"payload":[{"id":7010,"title":"1300 on Fillmore","lat":37.7816309,"lng":-122.4322568,"url":"bay-food\/1300-on-fillmore","imageUrl":"media\/reviews\/photos\/thumbnail\/640x460s\/a9\/75\/c2\/1300-on-fillmore-15-1475778901.gif","fields":[],"icon":"default","favorite":"no_access","inquiry":1,"ratings":{"user":{"rating":0,"count":0}}},{"id":7007,"title":"Gussie's Chicken & Waffles","lat":37.7811821,"lng":-122.4328986,"url":"bay-food\/gussies-chicken-a-waffles","imageUrl":"","fields":[],"icon":"default","favorite":"no_access","inquiry":1,"ratings":{"user":{"rating":0,"count":0}}},{"id":6600,"title":"Unsworth Personnel","lat":37.7850356,"lng":-122.4071517,"url":"b2b-professional\/unsworth-personnel","imageUrl":"","fields":[],"icon":"default","favorite":"no_access","inquiry":1,"ratings":{"user":{"rating":0,"count":0}}}]}
http://minority-biz.com/listings/tag/city/san-francisco?page=3

new shop, brennon jones 5925 Old York Road
sean johnson, phenominal perfection? tapers barbershop - PA
https://www.hjrussell.com/contact/
http://texturesbynef.com/contact.html

Harlem Capital Partners, 8 W 126th St, New York, NY, 10027info@harlem.capital
twitter:HarlemCapital

Harlem Coffee Co.
    151 Lenox Avenue
    New York
    NY
    10026

    Phone: (347)-486-3232
    twitter:harlemcoffeeco

